,ID,NAME,CATEGORY,ADDRESS_2,ADDRESS_1,LNG,LAT,REVIEW_COUNT,STAR_MEAN
0,1710520111,호텔리베,호텔,태평로2가 1-51,대구 중구 태평로2가,128.5929522,35.8757248,14,3.93
1,36139603,젠모텔,모텔,태평로2가 37-7,대구 중구 태평로2가,128.5930977,35.87599,24,3.63
2,15970709,사보이 호텔,모텔,대안동 80-1 대구 동성로 사보이호텔,대구 중구 대안동,128.5911059,35.8726254,17,3.68
3,11622388,경상감영공원,테마공원,포정동 21,대구 중구 포정동,128.5922289,35.8721759,10,3.95
4,917513103,더한옥,전통숙소,북내동 4-1,대구 중구 북내동,128.5901496,35.8730826,53,3.49
5,1996982038,게스트하우스 만나,게스트하우스,봉산동 230-273,대구 중구 봉산동,128.5968622,35.8602994,18,3.75
6,1693327264,서문한옥게스트하우스,게스트하우스,대신동 291-50,대구 중구 대신동,128.5795692,35.8668112,113,4.1
7,15979740,허니문 모텔,모텔,달성동 227-5 대구 동성로 허니문,대구 중구 달성동,128.5813662,35.8749473,15,3.8
8,38003302,온나게스트하우스,게스트하우스,146,대구 중구 남성로,128.5875727,35.8690967,494,4.29
9,13351829,국채보상운동기념공원,테마공원,동인동2가 78,대구 중구 동인동2가,128.60275,35.8690071,117,4.41
10,34945261,MTM,모텔,삼덕동2가 128-1,대구 중구 삼덕동2가,128.6012458,35.8663699,10,4.55
11,38570817,엠티엠모텔,모텔,삼덕동2가 128-1,대구 중구 삼덕동2가,128.6011868,35.8663857,23,4.17
12,16199208,이현공원,근린공원,대구 서구 이현동 산119,대구 서구 이현동,128.5444779,35.8732289,13,3.73
13,1466071334,경스 호스텔,게스트하우스,인교동 270,대구 중구 인교동,128.5858881,35.8715691,121,3.95
14,11556649,이월드,테마파크,두류동 산302-11,대구 달서구 두류동,128.5657598,35.8530293,28272,4.55
15,61926584,알토모텔,모텔,칠성동2가 302-111,대구 북구 칠성동2가,128.5984026,35.8760969,19,4.05
16,37391590,공감동성로게스트하우스,게스트하우스,동문동 38-9,대구 중구 동문동,128.5963242,35.8716587,210,4.34
17,13351200,MT 라이프 모텔,모텔,종로2가 23,대구 중구 종로2가,128.5914633,35.8692419,22,4.45
18,32730980,호텔 여기어때 대구역점,호텔,수창동 21-4,대구 중구 수창동,128.5882578,35.8754903,27,4.13
19,1739177087,호텔 노블스테이,호텔,동문동 38-11,대구 중구 동문동,128.5972609,35.8716707,29,4.09
20,12953757,노보텔 앰배서더 대구,호텔,문화동 11-1,대구 중구 문화동,128.5978725,35.8708429,54,4.6
21,11632884,2.28기념중앙공원,테마공원,공평동 15,대구 중구 공평동,128.5976674,35.8696999,79,4.27
22,1257222682,토요코인호텔 동성로점,호텔,동성로3가  91-9,대구 중구 동성로3가,128.5945549,35.8669572,339,4.37
23,35243944,부띠끄 아리아나호텔,모텔,삼덕동1가 14-1,대구 중구 삼덕동1가,128.5973637,35.8666661,15,4.47
24,36237304,피크니크 호텔,호텔,삼덕동2가 116-1,대구 중구 삼덕동2가,128.6020158,35.8662809,27,4.11
25,13337688,모텔라스베가스,모텔,비산7동 1304-2,대구 서구 비산7동,128.5594628,35.8893018,11,4.09
26,90187608,비앤비모텔,모텔,계산동2가 13,대구 중구 계산동2가,128.58805,35.869517,11,4.41
27,1796152048,호텔에스지도깨비,모텔,내당동 1105-2,대구 서구 내당동,128.5738705,35.8629844,24,4.71
28,33831388,청라언덕 게스트하우스,게스트하우스,동산동 526,대구 중구 동산동,128.5836021,35.8664501,81,4.69
29,1469324901,기키모텔,모텔,평리동 1406-1,대구 서구 평리동,128.5549172,35.8664983,11,4.27
30,1421642146,봄고로 게스트하우스,게스트하우스,장관동 49,대구 중구 장관동,128.5904678,35.8680185,392,4.69
31,1092544877,호텔인섬니아,모텔,삼덕동1가 11-6,대구 중구 삼덕동1가,128.5961529,35.8672186,40,4.34
32,32874689,공감게스트하우스,게스트하우스,종로2가 15,대구 중구 종로2가,128.5918562,35.8692279,94,4.53
33,16370069,83타워,전망대,두류동,대구 달서구 두류동,128.5662631,35.8534293,252,4.39
34,16156149,쇼앤쿡모텔,모텔,시장북로  7-1,대구 중구 시장북로,128.5827827,35.8725194,14,4.39
35,1846958155,갤러리모텔,모텔,향촌동 16,대구 중구 향촌동,128.5938894,35.8740746,29,4.14
36,16085265,에버그린모텔,모텔,원대동3가 1305-5,대구 서구 원대동3가,128.5749938,35.8862188,16,3.88
37,10978409,엘디스 리젠트 호텔,호텔,동산동 360,대구 중구 동산동,128.5860059,35.8664277,253,4.22
38,12016124,나인아워스 부띠끄모텔,모텔,대명3동 1890-20,대구 남구 대명3동,128.5832762,35.8560245,22,3.36
39,37213822,오투모텔,모텔,평리동 1417-1,대구 서구 평리동,128.5541232,35.8694955,23,4.24
40,1458510844,미드타운호스텔 게스트하우스,게스트하우스,장관동 30,대구 중구 장관동,128.5908576,35.8683779,522,4.68
41,36561518,굿스테이뉴그랜드호텔,호텔,칠성동2가 302-207,대구 북구 칠성동2가,128.597806,35.8760921,10,4.15
42,1528661496,호텔 여기어때 서대구점,호텔,비산동 451-13,대구 서구 비산동,128.5707807,35.8756433,38,4.36
43,38239323,럭셔리모텔,모텔,고성동2가 59-1,대구 북구 고성동2가,128.5853328,35.8804022,19,3.95
44,11491361,두류공원,테마공원,두류3동 588-3,대구 달서구 두류3동,128.559113,35.8489739,131,4.35
45,38781051,2X,모텔,평리동 1402-4,대구 서구 평리동,128.5546913,35.8680717,14,4.29
46,38393874,리버틴호텔,호텔,동문동 1-11,대구 중구 동문동,128.5979537,35.8720293,80,4.55
47,1626181995,한방의료체험타운,"관람,체험",종로2가 39-1,대구 중구 종로2가,128.5909754,35.8682166,19,4.76
48,1785525393,이웃집수달,동물원,남산동 2267-13 근린생활시설 5층,대구 중구 남산동,128.5813057,35.8572745,66,4.57
49,37445260,소울모텔,모텔,고성동2가 57-2,대구 북구 고성동2가,128.5856864,35.8802539,17,3.82
50,1023896226,교동게스트하우스,게스트하우스,화전동 21-1,대구 중구 화전동,128.5946102,35.8728378,161,4.2
51,1295629728,아이니멀티플렉스,"관람,체험",칠성동2가 20-1,대구 북구 칠성동2가,128.5897899,35.8852256,26,4.46
52,1286741392,호텔 온도,호텔,남성로 19-6,대구 중구 남성로,128.588028,35.8693087,29,3.78
53,33451212,에오스,호텔,동일동 15,대구 중구 동일동,128.5923313,35.8699269,17,4.56
54,1689741560,스파크랜드,테마파크,공평동 58-6,대구 중구 공평동,128.5987415,35.8687082,2758,4.46
55,16333081,침산공원,근린공원,대구 북구 침산동 1344-1,대구 북구 침산동,128.5858569,35.8953275,16,4.66
56,32786271,더스타일 게스트하우스,게스트하우스,서내동 53-3,대구 중구 서내동,128.5890199,35.8724902,143,3.45
57,435659985,2월호텔 동성로점,호텔,동일동 27,대구 중구 동일동,128.5927516,35.8695752,136,4.44
58,11622401,달성공원,테마공원,달성동 294-3,대구 중구 달성동,128.5781879,35.87404,202,4.28
59,1038493662,두류삐에로모텔,모텔,대명동 3047-18,대구 남구 대명동,128.5673617,35.8460531,16,3.94
60,1818166040,호텔 대구,호텔,두류동 147-5,대구 달서구 두류동,128.5595584,35.855542,26,4.54
61,16370805,이월드허리케인,부속건물,두류동 산302-11,대구 달서구 두류동,128.5660465,35.8513616,12,4.5
62,1964005375,스위트호텔,모텔,봉덕동 497-18,대구 남구 봉덕동,128.5982627,35.8474872,85,4.48
63,34778980,앞산 비즈니스 호텔,호텔,대명동 1713-2,대구 남구 대명동,128.5803662,35.8460082,27,4.59
64,21245067,힐탑호텔,호텔,대명동 3048-35,대구 남구 대명동,128.5683436,35.8450856,16,3.63
65,16012748,2월호텔 대구앞산점,모텔,대명동 1699-12,대구 남구 대명동,128.5824223,35.8417727,14,4.36
66,16370848,이월드카니발푸드페어,부속건물,두류동 산302-11,대구 달서구 두류동,128.5642435,35.8519145,21,4.33
67,1645037825,김광석스토리하우스,지역명소,대봉1동 40-53,대구 중구 대봉1동,128.6056352,35.8589781,31,4.52
68,38491537,일월모텔,모텔,두류동 475-7,대구 달서구 두류동,128.5587249,35.8547903,30,4.38
69,16369574,이월드중앙광장,부속건물,두류동 산302-11,대구 달서구 두류동,128.5646622,35.8537778,102,4.52
70,16323934,와자자 모텔,모텔,대명동 1892-52,대구 남구 대명동,128.5831825,35.8557297,10,4.7
71,37187306,룩모텔,모텔,성당동 117-23,대구 달서구 성당동,128.567563,35.847924,30,4.13
72,16370898,이월드진입광장,부속건물,두류동 산302-11,대구 달서구 두류동,128.5618948,35.8544412,20,4.33
73,16369413,이월드후룸라이드,부속건물,두류동 산302-11,대구 달서구 두류동,128.5647754,35.8525864,71,4.56
74,37468776,이월드 별빛축제,"축제,행사",두류동 산302-11,대구 달서구 두류동,128.5654579,35.8532661,1563,4.48
75,15972639,W뉴욕모텔,모텔,이천동 390-1,대구 남구 이천동,128.5989941,35.8552389,10,3.5
76,1241499207,플레이모텔,모텔,내당동 247-4,대구 서구 내당동,128.5555286,35.8627368,25,4.44
77,37868792,Urban Den,게스트하우스,대봉동 31-28,대구 중구 대봉동,128.6062806,35.859958,45,4.8
78,13448087,요요모텔,펜션,봉덕동 984-10,대구 남구 봉덕동,128.5913893,35.844787,36,4.03
79,37196576,글렌즈게스트하우스,게스트하우스,삼덕동3가 328-4,대구 중구 삼덕동3가,128.607059,35.8633187,189,4.52
80,1574422628,스위트호텔,모텔,대현동 412-6,대구 북구 대현동,128.6040272,35.885042,15,4.33
81,34326350,부티크호텔2월 대구황금점,호텔,황금동  779-2,대구 수성구 황금동,128.6239866,35.8451052,17,3.76
82,1285354838,브라운호텔,호텔,신천동 312-2,대구 동구 신천동,128.6286393,35.8685624,35,4.13
83,32255699,호텔투하트,모텔,신천동 340-2,대구 동구 신천동,128.628325,35.8702237,44,4.64
84,36395290,호텔라온제나,호텔,범어동 805-4,대구 수성구 범어동,128.6224259,35.8536728,169,4.41
85,1707844775,시월애호텔,모텔,신천동 116-11,대구 동구 신천동,128.6245932,35.8692227,18,3.75
86,450414130,공룡공원,테마공원,봉덕동 1256,대구 남구 봉덕동,128.6033946,35.8299253,20,3.98
87,12786747,모텔 마이더스,모텔,범어3동 42-1,대구 수성구 범어3동,128.624108,35.859744,23,3.87
88,1756346438,체리시호텔,모텔,황금동 850-1,대구 수성구 황금동,128.6231588,35.8408329,28,3.86
89,16150109,부티크호텔 2월 수성점,호텔,중동 188-3,대구 수성구 중동,128.6155481,35.8408273,29,3.95
90,33646423,A4모텔,모텔,신천동 292-14,대구 동구 신천동,128.6264665,35.8733651,17,4.47
91,1653473662,호텔 맥심,모텔,신천동 297-11,대구 동구 신천동,128.6270371,35.8696131,19,4.37
92,1629184882,보잉호텔 수성점,모텔,황금동 687-4,대구 수성구 황금동,128.623068,35.846452,22,4.25
93,68685079,대구아쿠아리움,아쿠아리움,신천동 1506,대구 동구 신천동,128.6291671,35.8777043,10168,4.39
94,13591456,프린스모텔,모텔,범어동 39-8,대구 수성구 범어동,128.62425,35.8606903,10,4.4
95,37421361,자야모텔,모텔,중동 259-7,대구 수성구 중동,128.612225,35.843949,17,4.59
96,13309592,인더호텔,모텔,신천동 318-2,대구 동구 신천동,128.6276561,35.8708762,15,4.2
97,11658875,대구 그랜드호텔,호텔,범어동 563-1,대구 수성구 범어동,128.6253149,35.8576433,78,4.26
98,37483628,호텔블랑,모텔,신천동  292-10,대구 동구 신천동,128.6263,35.8720403,46,4.39
99,1308137846,호텔포레스트701,모텔,신천동 297-8,대구 동구 신천동,128.6271284,35.8688926,63,4.51
100,1586418722,이스턴호텔,호텔,신천동 290-9,대구 동구 신천동,128.626597,35.8744774,22,4.7
101,1001168558,호텔시리즈4.5,호텔,신천동 322-9,대구 동구 신천동,128.6277069,35.8720275,28,4.36
102,35644199,헤라호텔,모텔,신암동  349-4,대구 동구 신암동,128.630281,35.881649,51,4.35
103,11382806,샹그리라 모텔,모텔,신천동 292-13,대구 동구 신천동,128.6267094,35.8730739,14,4.07
104,37483392,뉴욕모텔,모텔,신천동 336-1,대구 동구 신천동,128.6281011,35.8718429,26,4.25
105,1983492894,호텔 여기어때 동대구1호점,호텔,신암동 349-6,대구 동구 신암동,128.6301105,35.8812728,54,4.45
106,1563340476,호텔하루,모텔,신천동 339-6,대구 동구 신천동,128.6282156,35.8712187,33,4.47
107,38296670,스테이22 호텔,모텔,신천4동 324-1,대구 동구 신천4동,128.6271344,35.8734232,20,4.13
108,16061637,로얄모텔,모텔,신천동 379-4,대구 동구 신천동,128.6292661,35.8756082,53,4.08
109,1662133698,호텔슈가,모텔,신천동 321-1,대구 동구 신천동,128.6276886,35.871864,12,3.79
110,1107592001,리더스,모텔,신천동 322-6,대구 동구 신천동,128.6276144,35.8726374,14,3.5
111,1909856383,제이에스호텔,모텔,신천동 332-5,대구 동구 신천동,128.6280003,35.8741836,19,4.21
112,38495282,와와모텔,모텔,신천동 314-3,대구 동구 신천동,128.6289021,35.8693701,11,4.09
113,37525998,런던모텔,모텔,신천동 306-6,대구 동구 신천동,128.6289861,35.8679001,15,4.5
114,16061626,스위트호텔,모텔,신천동 305-2,대구 동구 신천동,128.6295964,35.8679451,28,4.16
115,36270870,레지던스알호텔,모텔,신천동  340-1,대구 동구 신천동,128.6282936,35.8704581,15,3.77
116,1139075877,미라지모텔,모텔,신천동 292-2,대구 동구 신천동,128.6266005,35.8731997,18,4.06
117,1536713028,모텔윙크,모텔,신천동 306-8,대구 동구 신천동,128.6292182,35.8679387,13,4.15
118,31699770,칸모텔,모텔,신암동 351-4,대구 동구 신암동,128.6311781,35.8816284,11,4.5
119,1098003723,무제여관,호텔,신암동 207-25,대구 동구 신암동,128.6260401,35.8799706,412,4.67
120,38495343,뉴젠모텔,모텔,신천동 332-4,대구 동구 신천동,128.6281319,35.8743978,16,4.28
121,16061651,10번가모텔,모텔,신천동 336-2,대구 동구 신천동,128.628087,35.871674,17,4.03
122,39850890,플레이22호텔,모텔,신천동  324,대구 동구 신천동,128.6271361,35.8735881,29,4.6
123,37615242,앤모텔,모텔,신천동 312-3,대구 동구 신천동,128.6287331,35.8684527,19,4.26
124,37040194,라인모텔,모텔,대현동 407-1,대구 북구 대현동,128.6090652,35.8824646,16,4.78
125,21120497,고운미피부과의원,피부과,봉산동 150-1,대구 중구 봉산동,128.5965536,35.8653103,592,4.33
126,1104164104,신경주경주시청특산품,"특산물,관광민예품",신암동 294,대구 동구 신암동,128.6287756,35.8794362,12,4.46
127,1213250330,옥연지 송해공원,근린공원,대구 달성군 옥포읍 기세리 306,대구 달성군 옥포읍,128.4808667,35.7799075,133,4.35
128,13319120,G2호텔,모텔,동천동  954-4,대구 북구 동천동,128.5571726,35.943135,29,4.33
129,659913225,아이니테마파크,테마파크,대흥동 504,대구 수성구 대흥동,128.6874434,35.8316683,6671,4.2
130,37878933,네이처파크,동물원,냉천리 27-9,대구 달성군 가창면,128.6353099,35.7873273,5094,4.46
131,16121358,컨벤션비지니스호텔,호텔,산격동 1682,대구 북구 산격동,128.6140739,35.905935,23,4.3
132,11658960,호텔수성,호텔,두산동 888-2,대구 수성구 두산동,128.6191837,35.8237939,525,4.32
133,36177967,마이더스,모텔,동천동 970-5,대구 북구 동천동,128.5556176,35.9438457,58,4.22
134,13470887,수성유원지,유원지,대구 수성구 두산동 512,대구 수성구 두산동,128.6179418,35.8292195,28,4.54
135,19838204,남평문씨본리세거지,"문화,유적",본리리 401-2,대구 달성군 화원읍,128.5181641,35.7928332,35,4.19
136,38642303,호텔인터불고 대구,호텔,만촌동 57-29,대구 수성구 만촌동,128.6597811,35.8743558,1581,4.44
137,13473883,동촌유원지,유원지,대구 동구 효목동 1314,대구 동구 효목동,128.6506578,35.8825692,22,4.02
138,31918937,퀸벨호텔,호텔,방촌동  1060-1,대구 동구 방촌동,128.661923,35.8824141,101,4.22
139,1911351779,대새목장,카페,주리 산132-28,대구 달성군 가창면,128.6071369,35.746025,230,4.21
140,12107177,화원유원지,유원지,성산리 310,대구 달성군 화원읍,128.4821611,35.8132448,217,4.39
141,21542086,호텔이시아,호텔,봉무동 1548-5,대구 동구 봉무동,128.6366913,35.9202454,44,3.91
142,755783212,엘리바덴 신월성점,"목욕탕,사우나",월성동 1828,대구 달서구 월성동,128.5257706,35.8250534,4820,4.29
143,34581415,마비정벽화마을,체험마을,본리리 1399,대구 달성군 화원읍,128.5416614,35.7786884,23,4.33
144,1696662791,호텔아싸,호텔,동천동 954-3,대구 북구 동천동,128.5572729,35.9433073,13,4.15
145,1133941182,베네치아모텔,모텔,서변동 1779-8,대구 북구 서변동,128.5990212,35.9231952,39,4.03
146,13491732,대구수목원,"식물원,수목원",대곡동 284,대구 달서구 대곡동,128.5236654,35.7989547,275,4.33
147,1374246286,갤러리호텔,모텔,산격동 1618,대구 북구 산격동,128.6087838,35.9080728,64,3.96
148,13491368,월광수변공원,"도시,테마공원",도원동 898-1,대구 달서구 도원동,128.547875,35.7988249,60,4.33
149,16037583,탑골식당,한식,용수동 14-7,대구 동구 용수동,128.6979843,35.9912201,167,4.4
150,16240562,이곡장미공원,근린공원,대구 달서구 이곡동 1306-6,대구 달서구 이곡동,128.5148617,35.8579242,21,4.52
151,1113272402,토이빌리지 대구혁신점,테마파크,대림동 888-1,대구 동구 대림동,128.7480382,35.8740689,1305,4.32
152,33239097,호텔 노스텔,호텔,동천동 910-2,대구 북구 동천동,128.5619787,35.9425735,16,4.0
153,37264287,팔공은가비,"백숙,삼계탕",미곡동 288,대구 동구 미곡동,128.6852198,35.9607876,428,4.7
154,11591736,비슬산자연휴양림,"휴양림,산림욕장",대구 달성군 유가읍 용리 산10,대구 달성군 유가읍,128.515807,35.6896219,273,4.46
155,16037578,팔공산온천관광호텔,호텔,용수동 89-16,대구 동구 용수동,128.6921371,35.990987,93,4.52
156,35966423,앞산공원전망대,전망대,대구 남구 대명동 산227-4,대구 남구 대명동,128.5871796,35.8264783,20,4.05
157,33956550,공산예원문화공원,테마공원,중대동 1111-1,대구 동구 중대동,128.6306013,35.9787558,17,4.44
158,33158778,사문진 주막촌,"도시,테마공원",대구 달성군 화원읍 성산리 744-11,대구 달성군 화원읍,128.4779643,35.8112631,2113,4.4
159,1451154454,글램호텔,모텔,동천동 897-6,대구 북구 동천동,128.5626977,35.9433001,31,4.08
160,1455409832,스위트호텔,모텔,관음동 1378-13,대구 북구 관음동,128.5481482,35.9343885,15,4.27
161,13455063,화원자연휴양림,"휴양림,산림욕장",본리리 산129,대구 달성군 화원읍,128.5355944,35.7718441,33,4.74
162,11657766,스파밸리,워터파크,냉천리 27-9,대구 달성군 가창면,128.635313,35.7881169,4712,4.18
163,13559429,서변온천,"온천,스파",서변동 1786,대구 북구 서변동,128.59908,35.9214639,23,3.7
164,11557565,팔공에밀리아호텔,호텔,용수동 90-1,대구 동구 용수동,128.690125,35.991668,46,4.33
165,19588937,운암지 수변공원,"도시,테마공원",대구 북구 구암동 349,대구 북구 구암동,128.5684447,35.9321152,18,4.42
166,38414839,반야월연꽃단지,지역명소,대구 동구 대림동 378-1,대구 동구 대림동,128.743537,35.8686362,36,4.33
167,11597143,에코테마파크 대구숲,유원지,용계리 534-1,대구 달성군 가창면,128.6266283,35.7946937,1634,3.84
168,13343446,봉무공원,"도시,테마공원",대구 동구 봉무동 산135-2,대구 동구 봉무동,128.6503049,35.9191271,53,4.48
169,13072214,아르떼 수성랜드,테마파크,상동 463-2,대구 수성구 상동,128.6133686,35.8285898,784,4.39
170,16282635,엘리바덴 상인점,"온천,스파",상인동 1558,대구 달서구 상인동,128.5478293,35.8121606,5096,4.28
171,1843325135,곳스테이,호텔,지묘동 85-1,대구 동구 지묘동,128.64656,35.9450025,117,4.52
172,13291856,오페라모텔,모텔,동천동 899-2,대구 북구 동천동,128.5614981,35.9436744,16,4.28
173,19663133,율하체육공원,"도시,테마공원",율하동 1626,대구 동구 율하동,128.6907794,35.8597238,50,4.27
174,13449869,호텔 인터불고 엑스코,호텔,산격동 1674 인터불고 엑스코 호텔,대구 북구 산격동,128.6111857,35.906971,235,4.39
175,931543241,이탈리안썸머호텔 경북대점,호텔,복현동 402-7,대구 북구 복현동,128.613555,35.896066,17,4.44
176,16323771,모닝모텔,모텔,대명동 1644-1,대구 남구 대명동,128.57265,35.841515,13,4.04
177,16369227,두류공원인라인스케이트장,부속시설,성당동 195-11,대구 달서구 성당동,128.5628687,35.8449871,34,4.32
178,37026881,TOP,모텔,태전동 496-1,대구 북구 태전동,128.5477244,35.9156207,12,4.46
179,1346523827,소호102호텔,모텔,태전동  788-1,대구 북구 태전동,128.5476464,35.9144799,46,3.89
180,1290424207,코스모스모텔,모텔,산격4동 1203-33,대구 북구 산격4동,128.607262,35.901232,13,4.58
181,37111452,그랜드관광호텔,호텔,지저동 400-1,대구 동구 지저동,128.6375066,35.9005062,42,4.65
182,16003047,보잉 호텔,모텔,지저동 767-2,대구 동구 지저동,128.6369493,35.8951903,27,4.2
183,16004972,소호호텔,호텔,입석동 982-1,대구 동구 입석동,128.6445753,35.892924,64,4.16
184,32255049,성주식물원,"식물원,수목원",지저동 370,대구 동구 지저동,128.6383839,35.9036908,43,4.5
185,1719330696,브라운도트 호텔 대구동촌유원지점,0,효목동 1015,대구 동구 효목동,128.6506992,35.881689,41,4.05
186,16137040,영모텔,모텔,복현동 415,대구 북구 복현동,128.615525,35.896499,12,4.54
187,36028389,시네마모텔,모텔,복현동 415-6,대구 북구 복현동,128.6161991,35.8959969,34,4.1
188,13320948,린비아토모텔,모텔,대구 동구 검사동 985-23,대구 동구 검사동,128.65011,35.8859436,19,3.61
189,1425698769,조이,모텔,황금동 850-4,대구 수성구 황금동,128.6231583,35.8416292,25,4.28
190,1936426279,갤러리호텔,모텔,두산동 91-1,대구 수성구 두산동,128.6213722,35.8385788,22,3.52
191,11659083,아리아나호텔,호텔,두산동 199-1,대구 수성구 두산동,128.6229,35.8328082,57,4.32
192,1213111767,SB호텔,모텔,황금동 859,대구 수성구 황금동,128.622579,35.8414511,11,4.45
193,1635719274,HOTEL 에비앙,모텔,황금동 859-2,대구 수성구 황금동,128.6227378,35.8413528,18,3.81
194,16159220,로미오앤줄리엣,모텔,두산동 95-1,대구 수성구 두산동,128.6222946,35.8394168,25,4.26
195,32062517,폭스모텔,모텔,두산동 89-3,대구 수성구 두산동,128.621588,35.83809,12,4.58
196,37117560,엠투고모텔,모텔,두산동 101,대구 수성구 두산동,128.6218583,35.8375781,23,3.96
197,1805124394,갤러리호텔,모텔,효목동 1010,대구 동구 효목동,128.6511537,35.8817409,26,4.13
198,463520741,조양회관,문화재,대구 동구 효목동,대구 동구 효목동,128.6544497,35.8768782,11,4.41
199,13416760,비지니스모텔,모텔,대구 동구 효목동 1007,대구 동구 효목동,128.6499,35.8815649,24,4.42
200,16165581,투스테이호텔,모텔,효목동 1087,대구 동구 효목동,128.6524363,35.8808774,12,4.54
201,1844324577,제이비관광호텔,호텔,상매동 506-6,대구 동구 상매동,128.70586,35.8885625,33,4.38
202,332134780,BOUTIQUE HOTEL 2STAY,모텔,효목동 1087,대구 동구 효목동,128.6526671,35.8808184,47,4.36
203,1345927927,피크니크호텔,호텔,두산동 618,대구 수성구 두산동,128.6244332,35.8278484,39,4.01
204,16155077,수성파크랜드,"레저,테마",상동 715,대구 수성구 상동,128.6135176,35.8264637,126,4.37
205,16065574,SG호텔,호텔,효목동 1166,대구 동구 효목동,128.6551921,35.878666,24,3.96
206,13332195,팔레스모텔,모텔,평리4동 1368-5,대구 서구 평리4동,128.555866,35.86837,17,4.15
207,20527162,듀오모텔,모텔,태전동 789-6,대구 북구 태전동,128.5477532,35.9145842,12,4.04
208,35840072,c1모텔,모텔,금호동 813,대구 북구 금호동,128.5184324,35.8949245,23,4.57
209,31794723,비앤비모텔,모텔,감삼동 599-75,대구 달서구 감삼동,128.5332875,35.8492404,21,4.67
210,36939881,스타,모텔,성당동 219-1,대구 달서구 성당동,128.5567829,35.8382617,27,4.17
211,454137390,호텔 러블리,모텔,본리동 376-3,대구 달서구 본리동,128.5378687,35.8406831,14,4.57
212,16367699,두류공원성당휴게소,부속시설,성당동 195-1,대구 달서구 성당동,128.5615956,35.8446143,159,4.25
213,101272279,호텔야자 대구서부정류장점,모텔,성당동 220-12,대구 달서구 성당동,128.5576095,35.8382787,17,4.47
214,32059451,K2모텔,모텔,감삼동 599-73,대구 달서구 감삼동,128.5326258,35.8489535,12,3.88
215,1550947382,체리쉬호텔,모텔,감삼동 172-1,대구 달서구 감삼동,128.5379457,35.8470595,30,4.22
216,20274148,모텔앤,모텔,대명동 1593-3,대구 남구 대명동,128.5608682,35.8387231,24,3.96
217,35457420,대구광역시관광협회,"협회,단체",두류동 588,대구 달서구 두류동,128.5574692,35.8508678,15,3.97
218,1267940986,HOTEL SERIES 2.8,모텔,본리동 386-3,대구 달서구 본리동,128.5358015,35.8407252,22,4.5
219,33963633,최양모텔,모텔,본리동 429-3,대구 달서구 본리동,128.5341768,35.8415495,38,4.12
220,1637030761,달서별빛캠프,"캠핑,야영장",송현동 산56,대구 달서구 송현동,128.5570421,35.8232437,28,4.13
221,36803061,루시모텔,모텔,본동 739-2,대구 달서구 본동,128.5358543,35.8368634,10,4.05
222,1008965005,부띠끄호텔 5월,모텔,본리동 428-3,대구 달서구 본리동,128.5342881,35.8410001,10,4.3
223,141996963,올레모텔,모텔,본동 739,대구 달서구 본동,128.535388,35.836882,14,4.18
224,34778981,펀호텔,모텔,본리동 375-2,대구 달서구 본리동,128.537888,35.841149,27,4.19
225,11622403,앞산공원,근린공원,대명9동 산227-1,대구 남구 대명9동,128.5871391,35.8266379,26,4.27
226,21057316,테크닉모텔,모텔,본리동 428-1,대구 달서구 본리동,128.5341125,35.8408821,27,4.85
227,1175928445,HOTEL 로랑,모텔,상인동 325-20,대구 달서구 상인동,128.5321602,35.8157456,43,3.77
228,1475971594,하하하,호텔,상인동 1473,대구 달서구 상인동,128.5398001,35.8131831,128,4.52
229,38724082,미성온천,"온천,스파",대천동 441-1 미성온천,대구 달서구 대천동,128.5175265,35.8177208,347,4.3
230,16271019,동아여관,여관,진천동 119-2,대구 달서구 진천동,128.5308552,35.8158518,18,4.17
231,13559431,화원식염온천,"온천,스파",본리리 10,대구 달성군 화원읍,128.5068936,35.8053487,89,4.55
232,1361348218,플라이코,체험여행,진천동 595-28,대구 달서구 진천동,128.5228899,35.8143077,99,4.28
233,1272690506,베네치아모텔,모텔,상인동 325-17,대구 달서구 상인동,128.5320069,35.8159964,27,4.19
234,1180671619,지프모텔,모텔,구라리 1735-14,대구 달성군 화원읍,128.5106944,35.8089379,10,3.75
235,12751557,수목원생활온천,"온천,스파",진천동 446,대구 달서구 진천동,128.52262,35.8082314,687,4.4
236,1885027900,엘리시아호텔,호텔,대곡동 1089,대구 달서구 대곡동,128.5334659,35.8010492,62,4.45
237,1195651896,필모텔,모텔,상인동 321-20,대구 달서구 상인동,128.531788,35.8162556,22,4.3
238,37749965,호텔드포레,호텔,냉천리 27-9,대구 달성군 가창면,128.635313,35.788117,12,4.92
239,16159256,올레모텔,모텔,두산동 777-2,대구 수성구 두산동,128.6231313,35.8247153,20,3.88
240,860285034,수성스테이,호텔,두산동 744-10,대구 수성구 두산동,128.6246066,35.8245824,32,4.25
241,1319553728,호텔 도도,모텔,두산동 740-4,대구 수성구 두산동,128.6253804,35.8257327,36,4.4
242,37161051,오렌지모텔,모텔,두산동 745,대구 수성구 두산동,128.6244129,35.8243588,24,4.1
243,1073109183,더썸모텔,모텔,두산동 745-5,대구 수성구 두산동,128.6247788,35.8237404,20,3.77
244,32721627,스파밸리온천,"온천,스파",냉천리 27-9,대구 달성군 가창면,128.635415,35.7880879,33,4.47
245,1646809804,스위트호텔,호텔,금호동 813,대구 북구 금호동,128.5189497,35.894901,13,4.15
246,36391684,뷰모텔,모텔,이곡동 1200-5,대구 달서구 이곡동,128.5058304,35.8542961,22,4.16
247,36538680,탑호텔,호텔,이곡동 1246-7,대구 달서구 이곡동,128.5083533,35.8544885,12,4.21
248,37798082,AW호텔,호텔,이곡2동 1198-6,대구 달서구 이곡2동,128.5066714,35.8545178,71,4.39
249,34786551,유니드호텔,호텔,이곡동 1200-3,대구 달서구 이곡동,128.506113,35.854565,20,4.33
250,1853555486,브라운도트 호텔 대구성서점,0,호산동 712-17,대구 달서구 호산동,128.4888361,35.8410287,44,4.3
251,1558251098,호텔야자 대구성서점,모텔,호산동 711-1,대구 달서구 호산동,128.4900881,35.8406695,14,4.61
252,33907060,터치모텔,모텔,호산동 713-3,대구 달서구 호산동,128.489075,35.8418375,18,4.17
253,34818094,뷰모텔,모텔,호산동 714-4 대구 성서 뷰,대구 달서구 호산동,128.489675,35.842232,13,4.08
254,1041653498,CF 모텔 성서점,모텔,호산동 708-4,대구 달서구 호산동,128.487178,35.8429909,25,4.48
255,16288623,젠모텔,모텔,호산동 708-10,대구 달서구 호산동,128.4873,35.842924,31,3.47
256,1655200391,호텔리츠,모텔,호산동 718-6,대구 달서구 호산동,128.4909033,35.8404908,29,4.31
257,31405633,에이치호텔,모텔,호산동 714-8,대구 달서구 호산동,128.488913,35.842199,10,4.25
258,1585983413,HOTEL 2월,모텔,호산동 719,대구 달서구 호산동,128.4912079,35.8417401,21,4.36
259,1540527161,로그인모텔,모텔,호림동 15-7,대구 달서구 호림동,128.489884,35.8354699,26,4.33
260,517842241,제이비프리미엄호텔,호텔,호림동 15-5,대구 달서구 호림동,128.48956,35.8354828,39,4.46
261,1304880879,GG모텔,모텔,호산동 720-3,대구 달서구 호산동,128.4910047,35.8398809,30,3.95
262,33907181,오월모텔,모텔,호림동 19-13,대구 달서구 호림동,128.4906,35.838224,25,4.38
263,33890108,썸타임모텔,모텔,호산동 713-2,대구 달서구 호산동,128.4887675,35.8418238,23,4.67
264,1916270989,크림모텔,모텔,호산동 720-5,대구 달서구 호산동,128.4905955,35.8401391,24,4.48
265,1679208873,그리고,모텔,호산동 711-6,대구 달서구 호산동,128.489536,35.8399342,35,4.57
266,35861761,까르디움모텔,모텔,호산동 711-3,대구 달서구 호산동,128.4901001,35.8402127,15,3.9
267,33906980,프렌치호텔,모텔,호산동 711-7,대구 달서구 호산동,128.489162,35.839932,31,4.71
268,11618123,대구복합스포츠타운대구실내빙상장,아이스링크,고성동3가 2,대구 북구 고성동3가,128.5861745,35.883114,126,4.61
269,20455968,가창시크릿가든,펜션,우록리 90-4,대구 달성군 가창면,128.6507348,35.7230743,81,4.75
270,1559902802,가창글램핑장,"캠핑,야영장",단산리 423-8,대구 달성군 가창면,128.6631043,35.7715252,11,4.5
271,38233789,가창농원 글램핑 오토캠핑장,"캠핑,야영장",삼산리 128,대구 달성군 가창면,128.6786311,35.726544,271,4.57
272,887316471,비즈니스호텔 K,호텔,신기동 13-2,대구 동구 신기동,128.7068788,35.8720385,52,4.21
273,1783904982,화이트모텔,모텔,용계동 702-49,대구 동구 용계동,128.6890943,35.8743887,22,4.36
274,72279062,인스타관광호텔,호텔,상매동 506-7,대구 동구 상매동,128.7058839,35.8887377,42,4.13
275,482998523,돈쥬앙모텔,모텔,동호동 116-4,대구 동구 동호동,128.7134288,35.8716096,38,4.42
276,1665103623,앙코르호텔,호텔,상매동 505-9,대구 동구 상매동,128.7057111,35.8875983,121,4.43
277,1193074422,아마레호텔,호텔,상매동 506-2,대구 동구 상매동,128.7062887,35.8883736,45,4.51
278,1269115299,방촌시장협동조합,"특산물,관광민예품",방촌동 1067-2,대구 동구 방촌동,128.66446,35.8813467,17,4.18
279,1473749997,아우룸호텔,호텔,대구 동구 상매동 505-3,대구 동구 상매동,128.7070317,35.8886949,25,4.2
280,516080756,이노밸리호텔,호텔,상매동 505-6,대구 동구 상매동,128.7065779,35.8879492,15,4.03
281,33626567,엠비엘모텔,모텔,호림동 19-14,대구 달서구 호림동,128.4909001,35.8384877,30,4.13
282,1676557804,호텔김,모텔,호림동 11-15,대구 달서구 호림동,128.4888848,35.8386515,17,4.15
283,1721903346,화원유원지 워터파크,워터파크,성산리 310,대구 달성군 화원읍,128.4821611,35.8132447,63,3.94
284,13470590,메르디앙모텔,모텔,호림동 18-15,대구 달서구 호림동,128.490613,35.836399,17,3.88
285,1144347365,웨이브모텔,모텔,호림동  14-6,대구 달서구 호림동,128.4894393,35.8358302,56,3.91
286,20527207,노리모텔,모텔,호산동 711-2,대구 달서구 호산동,128.4901251,35.840471,24,4.29
287,13192731,힐링모텔,모텔,호림동 10-11,대구 달서구 호림동,128.489162,35.839182,16,4.25
288,1381706381,오리전기차,테마파크,성산리 274,대구 달성군 화원읍,128.4786737,35.8110978,387,4.42
289,1231112068,호텔리움,모텔,기세리 119-2,대구 달성군 옥포읍,128.4735011,35.7906799,10,4.15
290,37341904,한훤당고택 by soga,기타숙박업,지리 1143 한훤당고택,대구 달성군 현풍읍,128.4271585,35.6714925,522,4.53
291,1890681668,알토모텔,모텔,금포리 1552-2,대구 달성군 논공읍,128.4229753,35.7739119,27,4.15
292,36874000,참살이농장,"관람,체험",기세리 969-78,대구 달성군 옥포읍,128.4761054,35.7842853,12,4.46
293,37769149,비슬산자연휴양림숲속캠핑장,"캠핑,야영장",대구 달성군 유가읍 용리 15-1,대구 달성군 유가읍,128.5093267,35.6917355,56,4.53
294,1170073197,비즈니스 호텔 유럽,모텔,남리 571-2,대구 달성군 논공읍,128.4481729,35.7267363,21,4.4
295,1486507221,호텔아젤리아,호스텔,용리 31-2,대구 달성군 유가읍,128.5061047,35.6922176,148,4.53
296,1451723298,뉴욕모텔,모텔,북리 824-2,대구 달성군 논공읍,128.4454,35.72861,26,4.1
297,38011032,호텔더디종,호텔,중리 496-1,대구 달성군 현풍읍,128.4561718,35.6918501,88,4.38
298,1068883008,엘레강스모텔,모텔,성하리 255-2,대구 달성군 현풍읍,128.4405326,35.7017913,28,4.04
299,518659731,칸호텔,호텔,내리 841-6,대구 달성군 구지면,128.4218159,35.6423609,65,4.53
300,44756013,HOTEL G,호텔,내리 841-7,대구 달성군 구지면,128.4221954,35.6422755,14,4.57
301,37867891,달성군낙동강레포츠밸리,"캠핑,야영장",오설리 756,대구 달성군 구지면,128.3712259,35.6722516,87,4.39
302,1815068555,첼로모텔,모텔,성하리 247-2,대구 달성군 현풍읍,128.4419388,35.6995604,35,3.91
303,37942041,히든모텔,모텔,유곡리 837-1,대구 달성군 유가읍,128.4497417,35.6703075,32,4.19
304,292922077,홍시모텔,모텔,성하리 238-5,대구 달성군 현풍읍,128.441836,35.6999871,38,3.95
305,1374327030,다올모텔,모텔,응암리 1276-1,대구 달성군 구지면,128.419161,35.6494392,38,4.16
306,33251325,현풍백년도깨비시장,시장,원교리 12-5,대구 달성군 현풍읍,128.4422211,35.6947739,10,4.0
307,38232633,비즈니스호텔 유럽,호텔,하산리 1054-3,대구 달성군 하빈면,128.3974702,35.8800491,18,4.03
308,19631887,물소리펜션,펜션,음리 59,대구 달성군 유가읍,128.4860035,35.6992201,49,5.0
309,20005907,은서민박식당,펜션,용리 88-2,대구 달성군 유가읍,128.501301,35.6894581,16,4.84
310,20491818,비슬산자연휴양림관리사무소,"휴양림,산림욕장",대구 달성군 유가읍 용리 10,대구 달성군 유가읍,128.5080089,35.6921251,57,4.04
